$GPRMC,080000.000,A,2306.3120,N,11316.5785,E,21.6,90.0,230523,,,A
$GPGGA,080000.000,2306.3120,N,11316.5785,E,1,08,1.0,15.0,M,0.0,M,,
$GPGSV,3,1,12,01,45,123,42,02,30,234,38,03,60,345,40,04,15,056,35
$GPRMC,080001.000,A,2306.3120,N,11316.5850,E,21.6,90.0,230523,,,A
$GPGGA,080001.000,2306.3120,N,11316.5850,E,1,08,1.0,15.0,M,0.0,M,,
$GPRMC,080002.000,A,2306.3120,N,11316.5915,E,21.6,90.0,230523,,,A
$GPGGA,080002.000,2306.3120,N,11316.5915,E,1,08,1.1,15.0,M,0.0,M,,
$GPRMC,080003.000,A,2306.3120,N,11316.5980,E,21.6,90.0,230523,,,A
$GPGGA,080003.000,2306.3120,N,11316.5980,E,1,08,1.1,15.0,M,0.0,M,,
$GPGSV,3,1,12,01,45,123,42,02,30,234,38,03,60,345,43,04,15,056,35
$GPRMC,080004.000,A,2306.3120,N,11316.6046,E,21.6,90.0,230523,,,A
$GPGGA,080004.000,2306.3120,N,11316.6046,E,1,08,1.1,15.0,M,0.0,M,,
$GPRMC,080005.000,A,2306.3120,N,11316.6111,E,21.6,90.0,230523,,,A
$GPGGA,080005.000,2306.3120,N,11316.6111,E,1,08,1.1,15.0,M,0.0,M,,
$GPRMC,080006.000,A,2306.3120,N,11316.6176,E,21.6,90.0,230523,,,A
$GPGGA,080006.000,2306.3120,N,11316.6176,E,1,08,1.2,15.0,M,0.0,M,,
$GPGSV,3,1,12,01,45,123,42,02,30,234,38,03,60,345,46,04,15,056,35
$GPRMC,080007.000,A,2306.3120,N,11316.6241,E,21.6,90.0,230523,,,A
$GPGGA,080007.000,2306.3120,N,11316.6241,E,1,08,1.2,15.0,M,0.0,M,,
$GPRMC,080008.000,A,2306.3120,N,11316.6306,E,21.6,90.0,230523,,,A
$GPGGA,080008.000,2306.3120,N,11316.6306,E,1,08,1.2,15.0,M,0.0,M,,
$GPRMC,080009.000,A,2306.3120,N,11316.6371,E,21.6,90.0,230523,,,A
$GPGGA,080009.000,2306.3120,N,11316.6371,E,1,08,1.2,15.0,M,0.0,M,,
$GPGSV,3,1,12,01,45,123,42,02,30,234,38,03,60,345,49,04,15,056,35
$GPRMC,080010.000,A,2306.3120,N,11316.6436,E,21.6,90.0,230523,,,A
$GPGGA,080010.000,2306.3120,N,11316.6436,E,1,08,1.3,15.0,M,0.0,M,,
$GPRMC,080011.000,A,2306.3120,N,11316.6501,E,21.6,90.0,230523,,,A
$GPGGA,080011.000,2306.3120,N,11316.6501,E,1,08,1.3,15.0,M,0.0,M,,
$GPRMC,080012.000,A,2306.3120,N,11316.6566,E,21.6,90.0,230523,,,A
$GPGGA,080012.000,2306.3120,N,11316.6566,E,1,08,1.3,15.0,M,0.0,M,,
$GPGSV,3,1,12,01,45,123,42,02,30,234,38,03,60,345,42,04,15,056,35
$GPRMC,080013.000,A,2306.3120,N,11316.6632,E,21.6,90.0,230523,,,A
$GPGGA,080013.000,2306.3120,N,11316.6632,E,1,08,1.3,15.0,M,0.0,M,,
$GPRMC,080014.000,A,2306.3120,N,11316.6697,E,21.6,90.0,230523,,,A
$GPGGA,080014.000,2306.3120,N,11316.6697,E,1,08,1.3,15.0,M,0.0,M,,
$GPRMC,080015.000,A,2306.3120,N,11316.6762,E,21.6,90.0,230523,,,A
$GPGGA,080015.000,2306.3120,N,11316.6762,E,1,08,1.3,15.0,M,0.0,M,,
$GPGSV,3,1,12,01,45,123,42,02,30,234,38,03,60,345,45,04,15,056,35
$GPRMC,080016.000,A,2306.3120,N,11316.6827,E,21.6,90.0,230523,,,A
$GPGGA,080016.000,2306.3120,N,11316.6827,E,1,08,1.3,15.0,M,0.0,M,,
$GPRMC,080017.000,A,2306.3120,N,11316.6892,E,21.6,90.0,230523,,,A
$GPGGA,080017.000,2306.3120,N,11316.6892,E,1,08,1.3,15.0,M,0.0,M,,
$GPRMC,080018.000,A,2306.3120,N,11316.6957,E,21.6,90.0,230523,,,A
$GPGGA,080018.000,2306.3120,N,11316.6957,E,1,08,1.3,15.0,M,0.0,M,,
$GPGSV,3,1,12,01,45,123,42,02,30,234,38,03,60,345,48,04,15,056,35
$GPRMC,080019.000,A,2306.3120,N,11316.7022,E,21.6,90.0,230523,,,A
$GPGGA,080019.000,2306.3120,N,11316.7022,E,1,08,1.3,15.0,M,0.0,M,,
$GPRMC,080020.000,A,2306.3120,N,11316.7087,E,21.6,90.0,230523,,,A
$GPGGA,080020.000,2306.3120,N,11316.7087,E,1,08,1.3,15.0,M,0.0,M,,
$GPRMC,080021.000,A,2306.3120,N,11316.7152,E,21.6,90.0,230523,,,A
$GPGGA,080021.000,2306.3120,N,11316.7152,E,1,08,1.3,15.0,M,0.0,M,,
$GPGSV,3,1,12,01,45,123,42,02,30,234,38,03,60,345,41,04,15,056,35
$GPRMC,080022.000,A,2306.3120,N,11316.7218,E,21.6,90.0,230523,,,A
$GPGGA,080022.000,2306.3120,N,11316.7218,E,1,08,1.2,15.0,M,0.0,M,,
$GPRMC,080023.000,A,2306.3120,N,11316.7283,E,21.6,90.0,230523,,,A
$GPGGA,080023.000,2306.3120,N,11316.7283,E,1,08,1.2,15.0,M,0.0,M,,
$GPRMC,080024.000,A,2306.3120,N,11316.7348,E,21.6,90.0,230523,,,A
$GPGGA,080024.000,2306.3120,N,11316.7348,E,1,08,1.2,15.0,M,0.0,M,,
$GPGSV,3,1,12,01,45,123,42,02,30,234,38,03,60,345,44,04,15,056,35
$GPRMC,080025.000,A,2306.3120,N,11316.7413,E,21.6,90.0,230523,,,A
$GPGGA,080025.000,2306.3120,N,11316.7413,E,1,08,1.2,15.0,M,0.0,M,,
$GPRMC,080026.000,A,2306.3120,N,11316.7478,E,21.6,90.0,230523,,,A
$GPGGA,080026.000,2306.3120,N,11316.7478,E,1,08,1.2,15.0,M,0.0,M,,
$GPRMC,080027.000,A,2306.3120,N,11316.7543,E,21.6,90.0,230523,,,A
$GPGGA,080027.000,2306.3120,N,11316.7543,E,1,08,1.1,15.0,M,0.0,M,,
$GPGSV,3,1,12,01,45,123,42,02,30,234,38,03,60,345,47,04,15,056,35
$GPRMC,080028.000,A,2306.3120,N,11316.7608,E,21.6,90.0,230523,,,A
$GPGGA,080028.000,2306.3120,N,11316.7608,E,1,08,1.1,15.0,M,0.0,M,,
$GPRMC,080029.000,A,2306.3120,N,11316.7673,E,21.6,90.0,230523,,,A
$GPGGA,080029.000,2306.3120,N,11316.7673,E,1,08,1.1,15.0,M,0.0,M,,
$GPRMC,080030.000,A,2306.3120,N,11316.7738,E,21.6,90.0,230523,,,A
$GPGGA,080030.000,2306.3120,N,11316.7738,E,1,08,1.0,15.0,M,0.0,M,,
$GPGSV,3,1,12,01,45,123,42,02,30,234,38,03,60,345,40,04,15,056,35
$GPRMC,080031.000,A,2306.3120,N,11316.7804,E,21.6,90.0,230523,,,A
$GPGGA,080031.000,2306.3120,N,11316.7804,E,1,08,1.0,15.0,M,0.0,M,,
$GPRMC,080032.000,A,2306.3120,N,11316.7869,E,21.6,90.0,230523,,,A
$GPGGA,080032.000,2306.3120,N,11316.7869,E,1,08,1.0,15.0,M,0.0,M,,
$GPRMC,080033.000,A,2306.3120,N,11316.7934,E,21.6,90.0,230523,,,A
$GPGGA,080033.000,2306.3120,N,11316.7934,E,1,08,1.0,15.0,M,0.0,M,,
$GPGSV,3,1,12,01,45,123,42,02,30,234,38,03,60,345,43,04,15,056,35
$GPRMC,080034.000,A,2306.3120,N,11316.7999,E,21.6,90.0,230523,,,A
$GPGGA,080034.000,2306.3120,N,11316.7999,E,1,08,0.9,15.0,M,0.0,M,,
$GPRMC,080035.000,A,2306.3120,N,11316.8064,E,21.6,90.0,230523,,,A
$GPGGA,080035.000,2306.3120,N,11316.8064,E,1,08,0.9,15.0,M,0.0,M,,
$GPRMC,080036.000,A,2306.3120,N,11316.8129,E,21.6,90.0,230523,,,A
$GPGGA,080036.000,2306.3120,N,11316.8129,E,1,08,0.9,15.0,M,0.0,M,,
$GPGSV,3,1,12,01,45,123,42,02,30,234,38,03,60,345,46,04,15,056,35
$GPRMC,080037.000,A,2306.3120,N,11316.8194,E,21.6,90.0,230523,,,A
$GPGGA,080037.000,2306.3120,N,11316.8194,E,1,08,0.8,15.0,M,0.0,M,,
$GPRMC,080038.000,A,2306.3120,N,11316.8259,E,21.6,90.0,230523,,,A
$GPGGA,080038.000,2306.3120,N,11316.8259,E,1,08,0.8,15.0,M,0.0,M,,
$GPRMC,080039.000,A,2306.3120,N,11316.8324,E,21.6,90.0,230523,,,A
$GPGGA,080039.000,2306.3120,N,11316.8324,E,1,08,0.8,15.0,M,0.0,M,,
$GPGSV,3,1,12,01,45,123,42,02,30,234,38,03,60,345,49,04,15,056,35
$GPRMC,080040.000,A,2306.3120,N,11316.8390,E,21.6,90.0,230523,,,A
$GPGGA,080040.000,2306.3120,N,11316.8390,E,1,08,0.8,15.0,M,0.0,M,,
$GPRMC,080041.000,A,2306.3120,N,11316.8455,E,21.6,90.0,230523,,,A
$GPGGA,080041.000,2306.3120,N,11316.8455,E,1,08,0.8,15.0,M,0.0,M,,
$GPRMC,080042.000,A,2306.3120,N,11316.8520,E,21.6,90.0,230523,,,A
$GPGGA,080042.000,2306.3120,N,11316.8520,E,1,08,0.7,15.0,M,0.0,M,,
$GPGSV,3,1,12,01,45,123,42,02,30,234,38,03,60,345,42,04,15,056,35
$GPRMC,080043.000,A,2306.3120,N,11316.8585,E,21.6,90.0,230523,,,A
$GPGGA,080043.000,2306.3120,N,11316.8585,E,1,08,0.7,15.0,M,0.0,M,,
$GPRMC,080044.000,A,2306.3120,N,11316.8650,E,21.6,90.0,230523,,,A
$GPGGA,080044.000,2306.3120,N,11316.8650,E,1,08,0.7,15.0,M,0.0,M,,
$GPRMC,080045.000,A,2306.3120,N,11316.8715,E,21.6,90.0,230523,,,A
$GPGGA,080045.000,2306.3120,N,11316.8715,E,1,08,0.7,15.0,M,0.0,M,,
$GPGSV,3,1,12,01,45,123,42,02,30,234,38,03,60,345,45,04,15,056,35
$GPRMC,080046.000,A,2306.3060,N,11316.8715,E,21.6,180.0,230523,,,A
$GPGGA,080046.000,2306.3060,N,11316.8715,E,1,08,0.7,15.0,M,0.0,M,,
$GPRMC,080047.000,A,2306.3000,N,11316.8715,E,21.6,180.0,230523,,,A
$GPGGA,080047.000,2306.3000,N,11316.8715,E,1,08,0.7,15.0,M,0.0,M,,
$GPRMC,080048.000,A,2306.2940,N,11316.8715,E,21.6,180.0,230523,,,A
$GPGGA,080048.000,2306.2940,N,11316.8715,E,1,08,0.7,15.0,M,0.0,M,,
$GPGSV,3,1,12,01,45,123,42,02,30,234,38,03,60,345,48,04,15,056,35
$GPRMC,080049.000,A,2306.2880,N,11316.8715,E,21.6,180.0,230523,,,A
$GPGGA,080049.000,2306.2880,N,11316.8715,E,1,08,0.7,15.0,M,0.0,M,,
$GPRMC,080050.000,A,2306.2821,N,11316.8715,E,21.6,180.0,230523,,,A
$GPGGA,080050.000,2306.2821,N,11316.8715,E,1,08,0.7,15.0,M,0.0,M,,
$GPRMC,080051.000,A,2306.2761,N,11316.8715,E,21.6,180.0,230523,,,A
$GPGGA,080051.000,2306.2761,N,11316.8715,E,1,08,0.7,15.0,M,0.0,M,,
$GPGSV,3,1,12,01,45,123,42,02,30,234,38,03,60,345,41,04,15,056,35
$GPRMC,080052.000,A,2306.2701,N,11316.8715,E,21.6,180.0,230523,,,A
$GPGGA,080052.000,2306.2701,N,11316.8715,E,1,08,0.7,15.0,M,0.0,M,,
$GPRMC,080053.000,A,2306.2641,N,11316.8715,E,21.6,180.0,230523,,,A
$GPGGA,080053.000,2306.2641,N,11316.8715,E,1,08,0.8,15.0,M,0.0,M,,
$GPRMC,080054.000,A,2306.2581,N,11316.8715,E,21.6,180.0,230523,,,A
$GPGGA,080054.000,2306.2581,N,11316.8715,E,1,08,0.8,15.0,M,0.0,M,,
$GPGSV,3,1,12,01,45,123,42,02,30,234,38,03,60,345,44,04,15,056,35
$GPRMC,080055.000,A,2306.2521,N,11316.8715,E,21.6,180.0,230523,,,A
$GPGGA,080055.000,2306.2521,N,11316.8715,E,1,08,0.8,15.0,M,0.0,M,,
$GPRMC,080056.000,A,2306.2461,N,11316.8715,E,21.6,180.0,230523,,,A
$GPGGA,080056.000,2306.2461,N,11316.8715,E,1,08,0.8,15.0,M,0.0,M,,
$GPRMC,080057.000,A,2306.2401,N,11316.8715,E,21.6,180.0,230523,,,A
$GPGGA,080057.000,2306.2401,N,11316.8715,E,1,08,0.8,15.0,M,0.0,M,,
$GPGSV,3,1,12,01,45,123,42,02,30,234,38,03,60,345,47,04,15,056,35
$GPRMC,080058.000,A,2306.2341,N,11316.8715,E,21.6,180.0,230523,,,A
$GPGGA,080058.000,2306.2341,N,11316.8715,E,1,08,0.9,15.0,M,0.0,M,,
$GPRMC,080059.000,A,2306.2282,N,11316.8715,E,21.6,180.0,230523,,,A
$GPGGA,080059.000,2306.2282,N,11316.8715,E,1,08,0.9,15.0,M,0.0,M,,
$GPRMC,080100.000,A,2306.2222,N,11316.8715,E,21.6,180.0,230523,,,A
$GPGGA,080100.000,2306.2222,N,11316.8715,E,1,08,0.9,15.0,M,0.0,M,,
$GPGSV,3,1,12,01,45,123,42,02,30,234,38,03,60,345,40,04,15,056,35
$GPRMC,080101.000,A,2306.2162,N,11316.8715,E,21.6,180.0,230523,,,A
$GPGGA,080101.000,2306.2162,N,11316.8715,E,1,08,0.9,15.0,M,0.0,M,,
$GPRMC,080102.000,A,2306.2102,N,11316.8715,E,21.6,180.0,230523,,,A
$GPGGA,080102.000,2306.2102,N,11316.8715,E,1,08,1.0,15.0,M,0.0,M,,
$GPRMC,080103.000,A,2306.2042,N,11316.8715,E,21.6,180.0,230523,,,A
$GPGGA,080103.000,2306.2042,N,11316.8715,E,1,08,1.0,15.0,M,0.0,M,,
$GPGSV,3,1,12,01,45,123,42,02,30,234,38,03,60,345,43,04,15,056,35
$GPRMC,080104.000,A,2306.1982,N,11316.8715,E,21.6,180.0,230523,,,A
$GPGGA,080104.000,2306.1982,N,11316.8715,E,1,08,1.0,15.0,M,0.0,M,,
$GPRMC,080105.000,A,2306.1922,N,11316.8715,E,21.6,180.0,230523,,,A
$GPGGA,080105.000,2306.1922,N,11316.8715,E,1,08,1.1,15.0,M,0.0,M,,
$GPRMC,080106.000,A,2306.1862,N,11316.8715,E,21.6,180.0,230523,,,A
$GPGGA,080106.000,2306.1862,N,11316.8715,E,1,08,1.1,15.0,M,0.0,M,,
$GPGSV,3,1,12,01,45,123,42,02,30,234,38,03,60,345,46,04,15,056,35
$GPRMC,080107.000,A,2306.1802,N,11316.8715,E,21.6,180.0,230523,,,A
$GPGGA,080107.000,2306.1802,N,11316.8715,E,1,08,1.1,15.0,M,0.0,M,,
$GPRMC,080108.000,A,2306.1743,N,11316.8715,E,21.6,180.0,230523,,,A
$GPGGA,080108.000,2306.1743,N,11316.8715,E,1,08,1.1,15.0,M,0.0,M,,
$GPRMC,080109.000,A,2306.1683,N,11316.8715,E,21.6,180.0,230523,,,A
$GPGGA,080109.000,2306.1683,N,11316.8715,E,1,08,1.2,15.0,M,0.0,M,,
$GPGSV,3,1,12,01,45,123,42,02,30,234,38,03,60,345,49,04,15,056,35
$GPRMC,080110.000,A,2306.1623,N,11316.8715,E,21.6,180.0,230523,,,A
$GPGGA,080110.000,2306.1623,N,11316.8715,E,1,08,1.2,15.0,M,0.0,M,,
$GPRMC,080111.000,A,2306.1563,N,11316.8715,E,21.6,180.0,230523,,,A
$GPGGA,080111.000,2306.1563,N,11316.8715,E,1,08,1.2,15.0,M,0.0,M,,
$GPRMC,080112.000,A,2306.1503,N,11316.8715,E,21.6,180.0,230523,,,A
$GPGGA,080112.000,2306.1503,N,11316.8715,E,1,08,1.2,15.0,M,0.0,M,,
$GPGSV,3,1,12,01,45,123,42,02,30,234,38,03,60,345,42,04,15,056,35
$GPRMC,080113.000,A,2306.1443,N,11316.8715,E,21.6,180.0,230523,,,A
$GPGGA,080113.000,2306.1443,N,11316.8715,E,1,08,1.3,15.0,M,0.0,M,,
$GPRMC,080114.000,A,2306.1383,N,11316.8715,E,21.6,180.0,230523,,,A
$GPGGA,080114.000,2306.1383,N,11316.8715,E,1,08,1.3,15.0,M,0.0,M,,
$GPRMC,080115.000,A,2306.1323,N,11316.8715,E,21.6,180.0,230523,,,A
$GPGGA,080115.000,2306.1323,N,11316.8715,E,1,08,1.3,15.0,M,0.0,M,,
$GPGSV,3,1,12,01,45,123,42,02,30,234,38,03,60,345,45,04,15,056,35
$GPRMC,080116.000,A,2306.1263,N,11316.8715,E,21.6,180.0,230523,,,A
$GPGGA,080116.000,2306.1263,N,11316.8715,E,1,08,1.3,15.0,M,0.0,M,,
$GPRMC,080117.000,A,2306.1204,N,11316.8715,E,21.6,180.0,230523,,,A
$GPGGA,080117.000,2306.1204,N,11316.8715,E,1,08,1.3,15.0,M,0.0,M,,
$GPRMC,080118.000,A,2306.1144,N,11316.8715,E,21.6,180.0,230523,,,A
$GPGGA,080118.000,2306.1144,N,11316.8715,E,1,08,1.3,15.0,M,0.0,M,,
$GPGSV,3,1,12,01,45,123,42,02,30,234,38,03,60,345,48,04,15,056,35
$GPRMC,080119.000,A,2306.1084,N,11316.8715,E,21.6,180.0,230523,,,A
$GPGGA,080119.000,2306.1084,N,11316.8715,E,1,08,1.3,15.0,M,0.0,M,,
$GPRMC,080120.000,A,2306.1024,N,11316.8715,E,21.6,180.0,230523,,,A
$GPGGA,080120.000,2306.1024,N,11316.8715,E,1,08,1.3,15.0,M,0.0,M,,
$GPRMC,080121.000,A,2306.0964,N,11316.8715,E,21.6,180.0,230523,,,A
$GPGGA,080121.000,2306.0964,N,11316.8715,E,1,08,1.3,15.0,M,0.0,M,,
$GPGSV,3,1,12,01,45,123,42,02,30,234,38,03,60,345,41,04,15,056,35
$GPRMC,080122.000,A,2306.0904,N,11316.8715,E,21.6,180.0,230523,,,A
$GPGGA,080122.000,2306.0904,N,11316.8715,E,1,08,1.3,15.0,M,0.0,M,,
$GPRMC,080123.000,A,2306.0844,N,11316.8715,E,21.6,180.0,230523,,,A
$GPGGA,080123.000,2306.0844,N,11316.8715,E,1,08,1.3,15.0,M,0.0,M,,
$GPRMC,080124.000,A,2306.0784,N,11316.8715,E,21.6,180.0,230523,,,A
$GPGGA,080124.000,2306.0784,N,11316.8715,E,1,08,1.3,15.0,M,0.0,M,,
$GPGSV,3,1,12,01,45,123,42,02,30,234,38,03,60,345,44,04,15,056,35
$GPRMC,080125.000,A,2306.0725,N,11316.8715,E,21.6,180.0,230523,,,A
$GPGGA,080125.000,2306.0725,N,11316.8715,E,1,08,1.2,15.0,M,0.0,M,,
$GPRMC,080126.000,A,2306.0665,N,11316.8715,E,21.6,180.0,230523,,,A
$GPGGA,080126.000,2306.0665,N,11316.8715,E,1,08,1.2,15.0,M,0.0,M,,
$GPRMC,080127.000,A,2306.0605,N,11316.8715,E,21.6,180.0,230523,,,A
$GPGGA,080127.000,2306.0605,N,11316.8715,E,1,08,1.2,15.0,M,0.0,M,,
$GPGSV,3,1,12,01,45,123,42,02,30,234,38,03,60,345,47,04,15,056,35
$GPRMC,080128.000,A,2306.0545,N,11316.8715,E,21.6,180.0,230523,,,A
$GPGGA,080128.000,2306.0545,N,11316.8715,E,1,08,1.2,15.0,M,0.0,M,,
$GPRMC,080129.000,A,2306.0485,N,11316.8715,E,21.6,180.0,230523,,,A
$GPGGA,080129.000,2306.0485,N,11316.8715,E,1,08,1.2,15.0,M,0.0,M,,
$GPRMC,080130.000,A,2306.0425,N,11316.8715,E,21.6,180.0,230523,,,A
$GPGGA,080130.000,2306.0425,N,11316.8715,E,1,08,1.1,15.0,M,0.0,M,,
$GPGSV,3,1,12,01,45,123,42,02,30,234,38,03,60,345,40,04,15,056,35
$GPRMC,080131.000,A,2306.0425,N,11316.8650,E,21.6,270.0,230523,,,A
$GPGGA,080131.000,2306.0425,N,11316.8650,E,1,08,1.1,15.0,M,0.0,M,,
$GPRMC,080132.000,A,2306.0425,N,11316.8585,E,21.6,270.0,230523,,,A
$GPGGA,080132.000,2306.0425,N,11316.8585,E,1,08,1.1,15.0,M,0.0,M,,
$GPRMC,080133.000,A,2306.0425,N,11316.8520,E,21.6,270.0,230523,,,A
$GPGGA,080133.000,2306.0425,N,11316.8520,E,1,08,1.0,15.0,M,0.0,M,,
$GPGSV,3,1,12,01,45,123,42,02,30,234,38,03,60,345,43,04,15,056,35
$GPRMC,080134.000,A,2306.0425,N,11316.8455,E,21.6,270.0,230523,,,A
$GPGGA,080134.000,2306.0425,N,11316.8455,E,1,08,1.0,15.0,M,0.0,M,,
$GPRMC,080135.000,A,2306.0425,N,11316.8390,E,21.6,270.0,230523,,,A
$GPGGA,080135.000,2306.0425,N,11316.8390,E,1,08,1.0,15.0,M,0.0,M,,
$GPRMC,080136.000,A,2306.0425,N,11316.8324,E,21.6,270.0,230523,,,A
$GPGGA,080136.000,2306.0425,N,11316.8324,E,1,08,0.9,15.0,M,0.0,M,,
$GPGSV,3,1,12,01,45,123,42,02,30,234,38,03,60,345,46,04,15,056,35
$GPRMC,080137.000,A,2306.0425,N,11316.8259,E,21.6,270.0,230523,,,A
$GPGGA,080137.000,2306.0425,N,11316.8259,E,1,08,0.9,15.0,M,0.0,M,,
$GPRMC,080138.000,A,2306.0425,N,11316.8194,E,21.6,270.0,230523,,,A
$GPGGA,080138.000,2306.0425,N,11316.8194,E,1,08,0.9,15.0,M,0.0,M,,
$GPRMC,080139.000,A,2306.0425,N,11316.8129,E,21.6,270.0,230523,,,A
$GPGGA,080139.000,2306.0425,N,11316.8129,E,1,08,0.9,15.0,M,0.0,M,,
$GPGSV,3,1,12,01,45,123,42,02,30,234,38,03,60,345,49,04,15,056,35
$GPRMC,080140.000,A,2306.0425,N,11316.8064,E,21.6,270.0,230523,,,A
$GPGGA,080140.000,2306.0425,N,11316.8064,E,1,08,0.8,15.0,M,0.0,M,,
$GPRMC,080141.000,A,2306.0425,N,11316.7999,E,21.6,270.0,230523,,,A
$GPGGA,080141.000,2306.0425,N,11316.7999,E,1,08,0.8,15.0,M,0.0,M,,
$GPRMC,080142.000,A,2306.0425,N,11316.7934,E,21.6,270.0,230523,,,A
$GPGGA,080142.000,2306.0425,N,11316.7934,E,1,08,0.8,15.0,M,0.0,M,,
$GPGSV,3,1,12,01,45,123,42,02,30,234,38,03,60,345,42,04,15,056,35
$GPRMC,080143.000,A,2306.0425,N,11316.7869,E,21.6,270.0,230523,,,A
$GPGGA,080143.000,2306.0425,N,11316.7869,E,1,08,0.8,15.0,M,0.0,M,,
$GPRMC,080144.000,A,2306.0425,N,11316.7804,E,21.6,270.0,230523,,,A
$GPGGA,080144.000,2306.0425,N,11316.7804,E,1,08,0.8,15.0,M,0.0,M,,
$GPRMC,080145.000,A,2306.0425,N,11316.7738,E,21.6,270.0,230523,,,A
$GPGGA,080145.000,2306.0425,N,11316.7738,E,1,08,0.7,15.0,M,0.0,M,,
$GPGSV,3,1,12,01,45,123,42,02,30,234,38,03,60,345,45,04,15,056,35
$GPRMC,080146.000,A,2306.0425,N,11316.7673,E,21.6,270.0,230523,,,A
$GPGGA,080146.000,2306.0425,N,11316.7673,E,1,08,0.7,15.0,M,0.0,M,,
$GPRMC,080147.000,A,2306.0425,N,11316.7608,E,21.6,270.0,230523,,,A
$GPGGA,080147.000,2306.0425,N,11316.7608,E,1,08,0.7,15.0,M,0.0,M,,
$GPRMC,080148.000,A,2306.0425,N,11316.7543,E,21.6,270.0,230523,,,A
$GPGGA,080148.000,2306.0425,N,11316.7543,E,1,08,0.7,15.0,M,0.0,M,,
$GPGSV,3,1,12,01,45,123,42,02,30,234,38,03,60,345,48,04,15,056,35
$GPRMC,080149.000,A,2306.0425,N,11316.7478,E,21.6,270.0,230523,,,A
$GPGGA,080149.000,2306.0425,N,11316.7478,E,1,08,0.7,15.0,M,0.0,M,,
$GPRMC,080150.000,A,2306.0425,N,11316.7413,E,21.6,270.0,230523,,,A
$GPGGA,080150.000,2306.0425,N,11316.7413,E,1,08,0.7,15.0,M,0.0,M,,
$GPRMC,080151.000,A,2306.0425,N,11316.7348,E,21.6,270.0,230523,,,A
$GPGGA,080151.000,2306.0425,N,11316.7348,E,1,08,0.7,15.0,M,0.0,M,,
$GPGSV,3,1,12,01,45,123,42,02,30,234,38,03,60,345,41,04,15,056,35
$GPRMC,080152.000,A,2306.0425,N,11316.7283,E,21.6,270.0,230523,,,A
$GPGGA,080152.000,2306.0425,N,11316.7283,E,1,08,0.7,15.0,M,0.0,M,,
$GPRMC,080153.000,A,2306.0425,N,11316.7218,E,21.6,270.0,230523,,,A
$GPGGA,080153.000,2306.0425,N,11316.7218,E,1,08,0.7,15.0,M,0.0,M,,
$GPRMC,080154.000,A,2306.0425,N,11316.7152,E,21.6,270.0,230523,,,A
$GPGGA,080154.000,2306.0425,N,11316.7152,E,1,08,0.7,15.0,M,0.0,M,,
$GPGSV,3,1,12,01,45,123,42,02,30,234,38,03,60,345,44,04,15,056,35
$GPRMC,080155.000,A,2306.0425,N,11316.7087,E,21.6,270.0,230523,,,A
$GPGGA,080155.000,2306.0425,N,11316.7087,E,1,08,0.7,15.0,M,0.0,M,,
$GPRMC,080156.000,A,2306.0425,N,11316.7022,E,21.6,270.0,230523,,,A
$GPGGA,080156.000,2306.0425,N,11316.7022,E,1,08,0.8,15.0,M,0.0,M,,
$GPRMC,080157.000,A,2306.0425,N,11316.6957,E,21.6,270.0,230523,,,A
$GPGGA,080157.000,2306.0425,N,11316.6957,E,1,08,0.8,15.0,M,0.0,M,,
$GPGSV,3,1,12,01,45,123,42,02,30,234,38,03,60,345,47,04,15,056,35
$GPRMC,080158.000,A,2306.0425,N,11316.6892,E,21.6,270.0,230523,,,A
$GPGGA,080158.000,2306.0425,N,11316.6892,E,1,08,0.8,15.0,M,0.0,M,,
$GPRMC,080159.000,A,2306.0425,N,11316.6827,E,21.6,270.0,230523,,,A
$GPGGA,080159.000,2306.0425,N,11316.6827,E,1,08,0.8,15.0,M,0.0,M,,
$GPRMC,080200.000,A,2306.0425,N,11316.6762,E,21.6,270.0,230523,,,A
$GPGGA,080200.000,2306.0425,N,11316.6762,E,1,08,0.8,15.0,M,0.0,M,,
$GPGSV,3,1,12,01,45,123,42,02,30,234,38,03,60,345,40,04,15,056,35
$GPRMC,080201.000,A,2306.0425,N,11316.6697,E,21.6,270.0,230523,,,A
$GPGGA,080201.000,2306.0425,N,11316.6697,E,1,08,0.9,15.0,M,0.0,M,,
$GPRMC,080202.000,A,2306.0425,N,11316.6632,E,21.6,270.0,230523,,,A
$GPGGA,080202.000,2306.0425,N,11316.6632,E,1,08,0.9,15.0,M,0.0,M,,
$GPRMC,080203.000,A,2306.0425,N,11316.6567,E,21.6,270.0,230523,,,A
$GPGGA,080203.000,2306.0425,N,11316.6567,E,1,08,0.9,15.0,M,0.0,M,,
$GPGSV,3,1,12,01,45,123,42,02,30,234,38,03,60,345,43,04,15,056,35
$GPRMC,080204.000,A,2306.0425,N,11316.6501,E,21.6,270.0,230523,,,A
$GPGGA,080204.000,2306.0425,N,11316.6501,E,1,08,1.0,15.0,M,0.0,M,,
$GPRMC,080205.000,A,2306.0425,N,11316.6436,E,21.6,270.0,230523,,,A
$GPGGA,080205.000,2306.0425,N,11316.6436,E,1,08,1.0,15.0,M,0.0,M,,
$GPRMC,080206.000,A,2306.0425,N,11316.6371,E,21.6,270.0,230523,,,A
$GPGGA,080206.000,2306.0425,N,11316.6371,E,1,08,1.0,15.0,M,0.0,M,,
$GPGSV,3,1,12,01,45,123,42,02,30,234,38,03,60,345,46,04,15,056,35
$GPRMC,080207.000,A,2306.0425,N,11316.6306,E,21.6,270.0,230523,,,A
$GPGGA,080207.000,2306.0425,N,11316.6306,E,1,08,1.0,15.0,M,0.0,M,,
$GPRMC,080208.000,A,2306.0425,N,11316.6241,E,21.6,270.0,230523,,,A
$GPGGA,080208.000,2306.0425,N,11316.6241,E,1,08,1.1,15.0,M,0.0,M,,
$GPRMC,080209.000,A,2306.0425,N,11316.6176,E,21.6,270.0,230523,,,A
$GPGGA,080209.000,2306.0425,N,11316.6176,E,1,08,1.1,15.0,M,0.0,M,,
$GPGSV,3,1,12,01,45,123,42,02,30,234,38,03,60,345,49,04,15,056,35
$GPRMC,080210.000,A,2306.0425,N,11316.6111,E,21.6,270.0,230523,,,A
$GPGGA,080210.000,2306.0425,N,11316.6111,E,1,08,1.1,15.0,M,0.0,M,,
$GPRMC,080211.000,A,2306.0425,N,11316.6046,E,21.6,270.0,230523,,,A
$GPGGA,080211.000,2306.0425,N,11316.6046,E,1,08,1.2,15.0,M,0.0,M,,
$GPRMC,080212.000,A,2306.0425,N,11316.5981,E,21.6,270.0,230523,,,A
$GPGGA,080212.000,2306.0425,N,11316.5981,E,1,08,1.2,15.0,M,0.0,M,,
$GPGSV,3,1,12,01,45,123,42,02,30,234,38,03,60,345,42,04,15,056,35
$GPRMC,080213.000,A,2306.0425,N,11316.5915,E,21.6,270.0,230523,,,A
$GPGGA,080213.000,2306.0425,N,11316.5915,E,1,08,1.2,15.0,M,0.0,M,,
$GPRMC,080214.000,A,2306.0425,N,11316.5850,E,21.6,270.0,230523,,,A
$GPGGA,080214.000,2306.0425,N,11316.5850,E,1,08,1.2,15.0,M,0.0,M,,
$GPRMC,080215.000,A,2306.0425,N,11316.5785,E,21.6,270.0,230523,,,A
$GPGGA,080215.000,2306.0425,N,11316.5785,E,1,08,1.2,15.0,M,0.0,M,,
$GPGSV,3,1,12,01,45,123,42,02,30,234,38,03,60,345,45,04,15,056,35
$GPRMC,080216.000,A,2306.0485,N,11316.5785,E,21.6,0.0,230523,,,A
$GPGGA,080216.000,2306.0485,N,11316.5785,E,1,08,1.3,15.0,M,0.0,M,,
$GPRMC,080217.000,A,2306.0545,N,11316.5785,E,21.6,0.0,230523,,,A
$GPGGA,080217.000,2306.0545,N,11316.5785,E,1,08,1.3,15.0,M,0.0,M,,
$GPRMC,080218.000,A,2306.0605,N,11316.5785,E,21.6,0.0,230523,,,A
$GPGGA,080218.000,2306.0605,N,11316.5785,E,1,08,1.3,15.0,M,0.0,M,,
$GPGSV,3,1,12,01,45,123,42,02,30,234,38,03,60,345,48,04,15,056,35
$GPRMC,080219.000,A,2306.0665,N,11316.5785,E,21.6,0.0,230523,,,A
$GPGGA,080219.000,2306.0665,N,11316.5785,E,1,08,1.3,15.0,M,0.0,M,,
$GPRMC,080220.000,A,2306.0725,N,11316.5785,E,21.6,0.0,230523,,,A
$GPGGA,080220.000,2306.0725,N,11316.5785,E,1,08,1.3,15.0,M,0.0,M,,
$GPRMC,080221.000,A,2306.0784,N,11316.5785,E,21.6,0.0,230523,,,A
$GPGGA,080221.000,2306.0784,N,11316.5785,E,1,08,1.3,15.0,M,0.0,M,,
$GPGSV,3,1,12,01,45,123,42,02,30,234,38,03,60,345,41,04,15,056,35
$GPRMC,080222.000,A,2306.0844,N,11316.5785,E,21.6,0.0,230523,,,A
$GPGGA,080222.000,2306.0844,N,11316.5785,E,1,08,1.3,15.0,M,0.0,M,,
$GPRMC,080223.000,A,2306.0904,N,11316.5785,E,21.6,0.0,230523,,,A
$GPGGA,080223.000,2306.0904,N,11316.5785,E,1,08,1.3,15.0,M,0.0,M,,
$GPRMC,080224.000,A,2306.0964,N,11316.5785,E,21.6,0.0,230523,,,A
$GPGGA,080224.000,2306.0964,N,11316.5785,E,1,08,1.3,15.0,M,0.0,M,,
$GPGSV,3,1,12,01,45,123,42,02,30,234,38,03,60,345,44,04,15,056,35
$GPRMC,080225.000,A,2306.1024,N,11316.5785,E,21.6,0.0,230523,,,A
$GPGGA,080225.000,2306.1024,N,11316.5785,E,1,08,1.3,15.0,M,0.0,M,,
$GPRMC,080226.000,A,2306.1084,N,11316.5785,E,21.6,0.0,230523,,,A
$GPGGA,080226.000,2306.1084,N,11316.5785,E,1,08,1.3,15.0,M,0.0,M,,
$GPRMC,080227.000,A,2306.1144,N,11316.5785,E,21.6,0.0,230523,,,A
$GPGGA,080227.000,2306.1144,N,11316.5785,E,1,08,1.3,15.0,M,0.0,M,,
$GPGSV,3,1,12,01,45,123,42,02,30,234,38,03,60,345,47,04,15,056,35
$GPRMC,080228.000,A,2306.1204,N,11316.5785,E,21.6,0.0,230523,,,A
$GPGGA,080228.000,2306.1204,N,11316.5785,E,1,08,1.2,15.0,M,0.0,M,,
$GPRMC,080229.000,A,2306.1263,N,11316.5785,E,21.6,0.0,230523,,,A
$GPGGA,080229.000,2306.1263,N,11316.5785,E,1,08,1.2,15.0,M,0.0,M,,
$GPRMC,080230.000,A,2306.1323,N,11316.5785,E,21.6,0.0,230523,,,A
$GPGGA,080230.000,2306.1323,N,11316.5785,E,1,08,1.2,15.0,M,0.0,M,,
$GPGSV,3,1,12,01,45,123,42,02,30,234,38,03,60,345,40,04,15,056,35
$GPRMC,080231.000,A,2306.1383,N,11316.5785,E,21.6,0.0,230523,,,A
$GPGGA,080231.000,2306.1383,N,11316.5785,E,1,08,1.2,15.0,M,0.0,M,,
$GPRMC,080232.000,A,2306.1443,N,11316.5785,E,21.6,0.0,230523,,,A
$GPGGA,080232.000,2306.1443,N,11316.5785,E,1,08,1.1,15.0,M,0.0,M,,
$GPRMC,080233.000,A,2306.1503,N,11316.5785,E,21.6,0.0,230523,,,A
$GPGGA,080233.000,2306.1503,N,11316.5785,E,1,08,1.1,15.0,M,0.0,M,,
$GPGSV,3,1,12,01,45,123,42,02,30,234,38,03,60,345,43,04,15,056,35
$GPRMC,080234.000,A,2306.1563,N,11316.5785,E,21.6,0.0,230523,,,A
$GPGGA,080234.000,2306.1563,N,11316.5785,E,1,08,1.1,15.0,M,0.0,M,,
$GPRMC,080235.000,A,2306.1623,N,11316.5785,E,21.6,0.0,230523,,,A
$GPGGA,080235.000,2306.1623,N,11316.5785,E,1,08,1.1,15.0,M,0.0,M,,
$GPRMC,080236.000,A,2306.1683,N,11316.5785,E,21.6,0.0,230523,,,A
$GPGGA,080236.000,2306.1683,N,11316.5785,E,1,08,1.0,15.0,M,0.0,M,,
$GPGSV,3,1,12,01,45,123,42,02,30,234,38,03,60,345,46,04,15,056,35
$GPRMC,080237.000,A,2306.1743,N,11316.5785,E,21.6,0.0,230523,,,A
$GPGGA,080237.000,2306.1743,N,11316.5785,E,1,08,1.0,15.0,M,0.0,M,,
$GPRMC,080238.000,A,2306.1802,N,11316.5785,E,21.6,0.0,230523,,,A
$GPGGA,080238.000,2306.1802,N,11316.5785,E,1,08,1.0,15.0,M,0.0,M,,
$GPRMC,080239.000,A,2306.1862,N,11316.5785,E,21.6,0.0,230523,,,A
$GPGGA,080239.000,2306.1862,N,11316.5785,E,1,08,0.9,15.0,M,0.0,M,,
$GPGSV,3,1,12,01,45,123,42,02,30,234,38,03,60,345,49,04,15,056,35
$GPRMC,080240.000,A,2306.1922,N,11316.5785,E,21.6,0.0,230523,,,A
$GPGGA,080240.000,2306.1922,N,11316.5785,E,1,08,0.9,15.0,M,0.0,M,,
$GPRMC,080241.000,A,2306.1982,N,11316.5785,E,21.6,0.0,230523,,,A
$GPGGA,080241.000,2306.1982,N,11316.5785,E,1,08,0.9,15.0,M,0.0,M,,
$GPRMC,080242.000,A,2306.2042,N,11316.5785,E,21.6,0.0,230523,,,A
$GPGGA,080242.000,2306.2042,N,11316.5785,E,1,08,0.9,15.0,M,0.0,M,,
$GPGSV,3,1,12,01,45,123,42,02,30,234,38,03,60,345,42,04,15,056,35
$GPRMC,080243.000,A,2306.2102,N,11316.5785,E,21.6,0.0,230523,,,A
$GPGGA,080243.000,2306.2102,N,11316.5785,E,1,08,0.8,15.0,M,0.0,M,,
$GPRMC,080244.000,A,2306.2162,N,11316.5785,E,21.6,0.0,230523,,,A
$GPGGA,080244.000,2306.2162,N,11316.5785,E,1,08,0.8,15.0,M,0.0,M,,
$GPRMC,080245.000,A,2306.2222,N,11316.5785,E,21.6,0.0,230523,,,A
$GPGGA,080245.000,2306.2222,N,11316.5785,E,1,08,0.8,15.0,M,0.0,M,,
$GPGSV,3,1,12,01,45,123,42,02,30,234,38,03,60,345,45,04,15,056,35
$GPRMC,080246.000,A,2306.2282,N,11316.5785,E,21.6,0.0,230523,,,A
$GPGGA,080246.000,2306.2282,N,11316.5785,E,1,08,0.8,15.0,M,0.0,M,,
$GPRMC,080247.000,A,2306.2341,N,11316.5785,E,21.6,0.0,230523,,,A
$GPGGA,080247.000,2306.2341,N,11316.5785,E,1,08,0.7,15.0,M,0.0,M,,
$GPRMC,080248.000,A,2306.2401,N,11316.5785,E,21.6,0.0,230523,,,A
$GPGGA,080248.000,2306.2401,N,11316.5785,E,1,08,0.7,15.0,M,0.0,M,,
$GPGSV,3,1,12,01,45,123,42,02,30,234,38,03,60,345,48,04,15,056,35
$GPRMC,080249.000,A,2306.2461,N,11316.5785,E,21.6,0.0,230523,,,A
$GPGGA,080249.000,2306.2461,N,11316.5785,E,1,08,0.7,15.0,M,0.0,M,,
$GPRMC,080250.000,A,2306.2521,N,11316.5785,E,21.6,0.0,230523,,,A
$GPGGA,080250.000,2306.2521,N,11316.5785,E,1,08,0.7,15.0,M,0.0,M,,
$GPRMC,080251.000,A,2306.2581,N,11316.5785,E,21.6,0.0,230523,,,A
$GPGGA,080251.000,2306.2581,N,11316.5785,E,1,08,0.7,15.0,M,0.0,M,,
$GPGSV,3,1,12,01,45,123,42,02,30,234,38,03,60,345,41,04,15,056,35
$GPRMC,080252.000,A,2306.2641,N,11316.5785,E,21.6,0.0,230523,,,A
$GPGGA,080252.000,2306.2641,N,11316.5785,E,1,08,0.7,15.0,M,0.0,M,,
$GPRMC,080253.000,A,2306.2701,N,11316.5785,E,21.6,0.0,230523,,,A
$GPGGA,080253.000,2306.2701,N,11316.5785,E,1,08,0.7,15.0,M,0.0,M,,
$GPRMC,080254.000,A,2306.2761,N,11316.5785,E,21.6,0.0,230523,,,A
$GPGGA,080254.000,2306.2761,N,11316.5785,E,1,08,0.7,15.0,M,0.0,M,,
$GPGSV,3,1,12,01,45,123,42,02,30,234,38,03,60,345,44,04,15,056,35
$GPRMC,080255.000,A,2306.2821,N,11316.5785,E,21.6,0.0,230523,,,A
$GPGGA,080255.000,2306.2821,N,11316.5785,E,1,08,0.7,15.0,M,0.0,M,,
$GPRMC,080256.000,A,2306.2880,N,11316.5785,E,21.6,0.0,230523,,,A
$GPGGA,080256.000,2306.2880,N,11316.5785,E,1,08,0.7,15.0,M,0.0,M,,
$GPRMC,080257.000,A,2306.2940,N,11316.5785,E,21.6,0.0,230523,,,A
$GPGGA,080257.000,2306.2940,N,11316.5785,E,1,08,0.7,15.0,M,0.0,M,,
$GPGSV,3,1,12,01,45,123,42,02,30,234,38,03,60,345,47,04,15,056,35
$GPRMC,080258.000,A,2306.3000,N,11316.5785,E,21.6,0.0,230523,,,A
$GPGGA,080258.000,2306.3000,N,11316.5785,E,1,08,0.7,15.0,M,0.0,M,,
$GPRMC,080259.000,A,2306.3060,N,11316.5785,E,21.6,0.0,230523,,,A
$GPGGA,080259.000,2306.3060,N,11316.5785,E,1,08,0.8,15.0,M,0.0,M,,
$GPRMC,080300.000,A,2306.3120,N,11316.5785,E,21.6,0.0,230523,,,A
$GPGGA,080300.000,2306.3120,N,11316.5785,E,1,08,0.8,15.0,M,0.0,M,,
$GPGSV,3,1,12,01,45,123,42,02,30,234,38,03,60,345,40,04,15,056,35
$GPRMC,080301.000,A,2306.3120,N,11316.5850,E,21.6,90.0,230523,,,A
$GPGGA,080301.000,2306.3120,N,11316.5850,E,1,08,0.8,15.0,M,0.0,M,,
$GPRMC,080302.000,A,2306.3120,N,11316.5915,E,21.6,90.0,230523,,,A
$GPGGA,080302.000,2306.3120,N,11316.5915,E,1,08,0.8,15.0,M,0.0,M,,
$GPRMC,080303.000,A,2306.3120,N,11316.5981,E,21.6,90.0,230523,,,A
$GPGGA,080303.000,2306.3120,N,11316.5981,E,1,08,0.8,15.0,M,0.0,M,,
$GPGSV,3,1,12,01,45,123,42,02,30,234,38,03,60,345,43,04,15,056,35
$GPRMC,080304.000,A,2306.3120,N,11316.6046,E,21.6,90.0,230523,,,A
$GPGGA,080304.000,2306.3120,N,11316.6046,E,1,08,0.9,15.0,M,0.0,M,,
$GPRMC,080305.000,A,2306.3120,N,11316.6111,E,21.6,90.0,230523,,,A
$GPGGA,080305.000,2306.3120,N,11316.6111,E,1,08,0.9,15.0,M,0.0,M,,
$GPRMC,080306.000,A,2306.3120,N,11316.6176,E,21.6,90.0,230523,,,A
$GPGGA,080306.000,2306.3120,N,11316.6176,E,1,08,0.9,15.0,M,0.0,M,,
$GPGSV,3,1,12,01,45,123,42,02,30,234,38,03,60,345,46,04,15,056,35
$GPRMC,080307.000,A,2306.3120,N,11316.6241,E,21.6,90.0,230523,,,A
$GPGGA,080307.000,2306.3120,N,11316.6241,E,1,08,1.0,15.0,M,0.0,M,,
$GPRMC,080308.000,A,2306.3120,N,11316.6306,E,21.6,90.0,230523,,,A
$GPGGA,080308.000,2306.3120,N,11316.6306,E,1,08,1.0,15.0,M,0.0,M,,
$GPRMC,080309.000,A,2306.3120,N,11316.6371,E,21.6,90.0,230523,,,A
$GPGGA,080309.000,2306.3120,N,11316.6371,E,1,08,1.0,15.0,M,0.0,M,,
$GPGSV,3,1,12,01,45,123,42,02,30,234,38,03,60,345,49,04,15,056,35
$GPRMC,080310.000,A,2306.3120,N,11316.6436,E,21.6,90.0,230523,,,A
$GPGGA,080310.000,2306.3120,N,11316.6436,E,1,08,1.0,15.0,M,0.0,M,,
$GPRMC,080311.000,A,2306.3120,N,11316.6501,E,21.6,90.0,230523,,,A
$GPGGA,080311.000,2306.3120,N,11316.6501,E,1,08,1.1,15.0,M,0.0,M,,
$GPRMC,080312.000,A,2306.3120,N,11316.6567,E,21.6,90.0,230523,,,A
$GPGGA,080312.000,2306.3120,N,11316.6567,E,1,08,1.1,15.0,M,0.0,M,,
$GPGSV,3,1,12,01,45,123,42,02,30,234,38,03,60,345,42,04,15,056,35
$GPRMC,080313.000,A,2306.3120,N,11316.6632,E,21.6,90.0,230523,,,A
$GPGGA,080313.000,2306.3120,N,11316.6632,E,1,08,1.1,15.0,M,0.0,M,,
$GPRMC,080314.000,A,2306.3120,N,11316.6697,E,21.6,90.0,230523,,,A
$GPGGA,080314.000,2306.3120,N,11316.6697,E,1,08,1.2,15.0,M,0.0,M,,
$GPRMC,080315.000,A,2306.3120,N,11316.6762,E,21.6,90.0,230523,,,A
$GPGGA,080315.000,2306.3120,N,11316.6762,E,1,08,1.2,15.0,M,0.0,M,,
$GPGSV,3,1,12,01,45,123,42,02,30,234,38,03,60,345,45,04,15,056,35
$GPRMC,080316.000,A,2306.3120,N,11316.6827,E,21.6,90.0,230523,,,A
$GPGGA,080316.000,2306.3120,N,11316.6827,E,1,08,1.2,15.0,M,0.0,M,,
$GPRMC,080317.000,A,2306.3120,N,11316.6892,E,21.6,90.0,230523,,,A
$GPGGA,080317.000,2306.3120,N,11316.6892,E,1,08,1.2,15.0,M,0.0,M,,
$GPRMC,080318.000,A,2306.3120,N,11316.6957,E,21.6,90.0,230523,,,A
$GPGGA,080318.000,2306.3120,N,11316.6957,E,1,08,1.2,15.0,M,0.0,M,,
$GPGSV,3,1,12,01,45,123,42,02,30,234,38,03,60,345,48,04,15,056,35
$GPRMC,080319.000,A,2306.3120,N,11316.7022,E,21.6,90.0,230523,,,A
$GPGGA,080319.000,2306.3120,N,11316.7022,E,1,08,1.3,15.0,M,0.0,M,,
$GPRMC,080320.000,A,2306.3120,N,11316.7087,E,21.6,90.0,230523,,,A
$GPGGA,080320.000,2306.3120,N,11316.7087,E,1,08,1.3,15.0,M,0.0,M,,
$GPRMC,080321.000,A,2306.3120,N,11316.7153,E,21.6,90.0,230523,,,A
$GPGGA,080321.000,2306.3120,N,11316.7153,E,1,08,1.3,15.0,M,0.0,M,,
$GPGSV,3,1,12,01,45,123,42,02,30,234,38,03,60,345,41,04,15,056,35
$GPRMC,080322.000,A,2306.3120,N,11316.7218,E,21.6,90.0,230523,,,A
$GPGGA,080322.000,2306.3120,N,11316.7218,E,1,08,1.3,15.0,M,0.0,M,,
$GPRMC,080323.000,A,2306.3120,N,11316.7283,E,21.6,90.0,230523,,,A
$GPGGA,080323.000,2306.3120,N,11316.7283,E,1,08,1.3,15.0,M,0.0,M,,
$GPRMC,080324.000,A,2306.3120,N,11316.7348,E,21.6,90.0,230523,,,A
$GPGGA,080324.000,2306.3120,N,11316.7348,E,1,08,1.3,15.0,M,0.0,M,,
$GPGSV,3,1,12,01,45,123,42,02,30,234,38,03,60,345,44,04,15,056,35
$GPRMC,080325.000,A,2306.3120,N,11316.7413,E,21.6,90.0,230523,,,A
$GPGGA,080325.000,2306.3120,N,11316.7413,E,1,08,1.3,15.0,M,0.0,M,,
$GPRMC,080326.000,A,2306.3120,N,11316.7478,E,21.6,90.0,230523,,,A
$GPGGA,080326.000,2306.3120,N,11316.7478,E,1,08,1.3,15.0,M,0.0,M,,
$GPRMC,080327.000,A,2306.3120,N,11316.7543,E,21.6,90.0,230523,,,A
$GPGGA,080327.000,2306.3120,N,11316.7543,E,1,08,1.3,15.0,M,0.0,M,,
$GPGSV,3,1,12,01,45,123,42,02,30,234,38,03,60,345,47,04,15,056,35
$GPRMC,080328.000,A,2306.3120,N,11316.7608,E,21.6,90.0,230523,,,A
$GPGGA,080328.000,2306.3120,N,11316.7608,E,1,08,1.3,15.0,M,0.0,M,,
$GPRMC,080329.000,A,2306.3120,N,11316.7673,E,21.6,90.0,230523,,,A
$GPGGA,080329.000,2306.3120,N,11316.7673,E,1,08,1.3,15.0,M,0.0,M,,
$GPRMC,080330.000,A,2306.3120,N,11316.7739,E,21.6,90.0,230523,,,A
$GPGGA,080330.000,2306.3120,N,11316.7739,E,1,08,1.3,15.0,M,0.0,M,,
$GPGSV,3,1,12,01,45,123,42,02,30,234,38,03,60,345,40,04,15,056,35
$GPRMC,080331.000,A,2306.3120,N,11316.7804,E,21.6,90.0,230523,,,A
$GPGGA,080331.000,2306.3120,N,11316.7804,E,1,08,1.2,15.0,M,0.0,M,,
$GPRMC,080332.000,A,2306.3120,N,11316.7869,E,21.6,90.0,230523,,,A
$GPGGA,080332.000,2306.3120,N,11316.7869,E,1,08,1.2,15.0,M,0.0,M,,
$GPRMC,080333.000,A,2306.3120,N,11316.7934,E,21.6,90.0,230523,,,A
$GPGGA,080333.000,2306.3120,N,11316.7934,E,1,08,1.2,15.0,M,0.0,M,,
$GPGSV,3,1,12,01,45,123,42,02,30,234,38,03,60,345,43,04,15,056,35
$GPRMC,080334.000,A,2306.3120,N,11316.7999,E,21.6,90.0,230523,,,A
$GPGGA,080334.000,2306.3120,N,11316.7999,E,1,08,1.2,15.0,M,0.0,M,,
$GPRMC,080335.000,A,2306.3120,N,11316.8064,E,21.6,90.0,230523,,,A
$GPGGA,080335.000,2306.3120,N,11316.8064,E,1,08,1.1,15.0,M,0.0,M,,
$GPRMC,080336.000,A,2306.3120,N,11316.8129,E,21.6,90.0,230523,,,A
$GPGGA,080336.000,2306.3120,N,11316.8129,E,1,08,1.1,15.0,M,0.0,M,,
$GPGSV,3,1,12,01,45,123,42,02,30,234,38,03,60,345,46,04,15,056,35
$GPRMC,080337.000,A,2306.3120,N,11316.8194,E,21.6,90.0,230523,,,A
$GPGGA,080337.000,2306.3120,N,11316.8194,E,1,08,1.1,15.0,M,0.0,M,,
$GPRMC,080338.000,A,2306.3120,N,11316.8259,E,21.6,90.0,230523,,,A
$GPGGA,080338.000,2306.3120,N,11316.8259,E,1,08,1.1,15.0,M,0.0,M,,
$GPRMC,080339.000,A,2306.3120,N,11316.8325,E,21.6,90.0,230523,,,A
$GPGGA,080339.000,2306.3120,N,11316.8325,E,1,08,1.0,15.0,M,0.0,M,,
$GPGSV,3,1,12,01,45,123,42,02,30,234,38,03,60,345,49,04,15,056,35
$GPRMC,080340.000,A,2306.3120,N,11316.8390,E,21.6,90.0,230523,,,A
$GPGGA,080340.000,2306.3120,N,11316.8390,E,1,08,1.0,15.0,M,0.0,M,,
$GPRMC,080341.000,A,2306.3120,N,11316.8455,E,21.6,90.0,230523,,,A
$GPGGA,080341.000,2306.3120,N,11316.8455,E,1,08,1.0,15.0,M,0.0,M,,
$GPRMC,080342.000,A,2306.3120,N,11316.8520,E,21.6,90.0,230523,,,A
$GPGGA,080342.000,2306.3120,N,11316.8520,E,1,08,0.9,15.0,M,0.0,M,,
$GPGSV,3,1,12,01,45,123,42,02,30,234,38,03,60,345,42,04,15,056,35
$GPRMC,080343.000,A,2306.3120,N,11316.8585,E,21.6,90.0,230523,,,A
$GPGGA,080343.000,2306.3120,N,11316.8585,E,1,08,0.9,15.0,M,0.0,M,,
$GPRMC,080344.000,A,2306.3120,N,11316.8650,E,21.6,90.0,230523,,,A
$GPGGA,080344.000,2306.3120,N,11316.8650,E,1,08,0.9,15.0,M,0.0,M,,
$GPRMC,080345.000,A,2306.3120,N,11316.8715,E,21.6,90.0,230523,,,A
$GPGGA,080345.000,2306.3120,N,11316.8715,E,1,08,0.9,15.0,M,0.0,M,,
$GPGSV,3,1,12,01,45,123,42,02,30,234,38,03,60,345,45,04,15,056,35
$GPRMC,080346.000,A,2306.3120,N,11316.8780,E,21.6,90.0,230523,,,A
$GPGGA,080346.000,2306.3120,N,11316.8780,E,1,08,0.8,15.0,M,0.0,M,,
$GPRMC,080347.000,A,2306.3120,N,11316.8845,E,21.6,90.0,230523,,,A
$GPGGA,080347.000,2306.3120,N,11316.8845,E,1,08,0.8,15.0,M,0.0,M,,
$GPRMC,080348.000,A,2306.3120,N,11316.8910,E,21.6,90.0,230523,,,A
$GPGGA,080348.000,2306.3120,N,11316.8910,E,1,08,0.8,15.0,M,0.0,M,,
$GPGSV,3,1,12,01,45,123,42,02,30,234,38,03,60,345,48,04,15,056,35
$GPRMC,080349.000,A,2306.3120,N,11316.8976,E,21.6,90.0,230523,,,A
$GPGGA,080349.000,2306.3120,N,11316.8976,E,1,08,0.8,15.0,M,0.0,M,,
$GPRMC,080350.000,A,2306.3120,N,11316.9041,E,21.6,90.0,230523,,,A
$GPGGA,080350.000,2306.3120,N,11316.9041,E,1,08,0.7,15.0,M,0.0,M,,
$GPRMC,080351.000,A,2306.3120,N,11316.9106,E,21.6,90.0,230523,,,A
$GPGGA,080351.000,2306.3120,N,11316.9106,E,1,08,0.7,15.0,M,0.0,M,,
$GPGSV,3,1,12,01,45,123,42,02,30,234,38,03,60,345,41,04,15,056,35
$GPRMC,080352.000,A,2306.3120,N,11316.9171,E,21.6,90.0,230523,,,A
$GPGGA,080352.000,2306.3120,N,11316.9171,E,1,08,0.7,15.0,M,0.0,M,,
$GPRMC,080353.000,A,2306.3120,N,11316.9236,E,21.6,90.0,230523,,,A
$GPGGA,080353.000,2306.3120,N,11316.9236,E,1,08,0.7,15.0,M,0.0,M,,
$GPRMC,080354.000,A,2306.3120,N,11316.9301,E,21.6,90.0,230523,,,A
$GPGGA,080354.000,2306.3120,N,11316.9301,E,1,08,0.7,15.0,M,0.0,M,,
$GPGSV,3,1,12,01,45,123,42,02,30,234,38,03,60,345,44,04,15,056,35
$GPRMC,080355.000,A,2306.3120,N,11316.9366,E,21.6,90.0,230523,,,A
$GPGGA,080355.000,2306.3120,N,11316.9366,E,1,08,0.7,15.0,M,0.0,M,,
$GPRMC,080356.000,A,2306.3120,N,11316.9431,E,21.6,90.0,230523,,,A
$GPGGA,080356.000,2306.3120,N,11316.9431,E,1,08,0.7,15.0,M,0.0,M,,
$GPRMC,080357.000,A,2306.3120,N,11316.9496,E,21.6,90.0,230523,,,A
$GPGGA,080357.000,2306.3120,N,11316.9496,E,1,08,0.7,15.0,M,0.0,M,,
$GPGSV,3,1,12,01,45,123,42,02,30,234,38,03,60,345,47,04,15,056,35
$GPRMC,080358.000,A,2306.3120,N,11316.9562,E,21.6,90.0,230523,,,A
$GPGGA,080358.000,2306.3120,N,11316.9562,E,1,08,0.7,15.0,M,0.0,M,,
$GPRMC,080359.000,A,2306.3120,N,11316.9627,E,21.6,90.0,230523,,,A
$GPGGA,080359.000,2306.3120,N,11316.9627,E,1,08,0.7,15.0,M,0.0,M,,
$GPRMC,080400.000,A,2306.3120,N,11316.9692,E,21.6,90.0,230523,,,A
$GPGGA,080400.000,2306.3120,N,11316.9692,E,1,08,0.7,15.0,M,0.0,M,,
$GPGSV,3,1,12,01,45,123,42,02,30,234,38,03,60,345,40,04,15,056,35
$GPRMC,080401.000,A,2306.3120,N,11316.9757,E,21.6,90.0,230523,,,A
$GPGGA,080401.000,2306.3120,N,11316.9757,E,1,08,0.7,15.0,M,0.0,M,,
$GPRMC,080402.000,A,2306.3120,N,11316.9822,E,21.6,90.0,230523,,,A
$GPGGA,080402.000,2306.3120,N,11316.9822,E,1,08,0.8,15.0,M,0.0,M,,
$GPRMC,080403.000,A,2306.3120,N,11316.9887,E,21.6,90.0,230523,,,A
$GPGGA,080403.000,2306.3120,N,11316.9887,E,1,08,0.8,15.0,M,0.0,M,,
$GPGSV,3,1,12,01,45,123,42,02,30,234,38,03,60,345,43,04,15,056,35
$GPRMC,080404.000,A,2306.3120,N,11316.9952,E,21.6,90.0,230523,,,A
$GPGGA,080404.000,2306.3120,N,11316.9952,E,1,08,0.8,15.0,M,0.0,M,,
$GPRMC,080405.000,A,2306.3120,N,11317.0017,E,21.6,90.0,230523,,,A
$GPGGA,080405.000,2306.3120,N,11317.0017,E,1,08,0.8,15.0,M,0.0,M,,
$GPRMC,080406.000,A,2306.3120,N,11317.0082,E,21.6,90.0,230523,,,A
$GPGGA,080406.000,2306.3120,N,11317.0082,E,1,08,0.8,15.0,M,0.0,M,,
$GPGSV,3,1,12,01,45,123,42,02,30,234,38,03,60,345,46,04,15,056,35
$GPRMC,080407.000,A,2306.3120,N,11317.0148,E,21.6,90.0,230523,,,A
$GPGGA,080407.000,2306.3120,N,11317.0148,E,1,08,0.9,15.0,M,0.0,M,,
$GPRMC,080408.000,A,2306.3120,N,11317.0213,E,21.6,90.0,230523,,,A
$GPGGA,080408.000,2306.3120,N,11317.0213,E,1,08,0.9,15.0,M,0.0,M,,
$GPRMC,080409.000,A,2306.3120,N,11317.0278,E,21.6,90.0,230523,,,A
$GPGGA,080409.000,2306.3120,N,11317.0278,E,1,08,0.9,15.0,M,0.0,M,,
$GPGSV,3,1,12,01,45,123,42,02,30,234,38,03,60,345,49,04,15,056,35
$GPRMC,080410.000,A,2306.3120,N,11317.0343,E,21.6,90.0,230523,,,A
$GPGGA,080410.000,2306.3120,N,11317.0343,E,1,08,1.0,15.0,M,0.0,M,,
$GPRMC,080411.000,A,2306.3120,N,11317.0408,E,21.6,90.0,230523,,,A
$GPGGA,080411.000,2306.3120,N,11317.0408,E,1,08,1.0,15.0,M,0.0,M,,
$GPRMC,080412.000,A,2306.3120,N,11317.0473,E,21.6,90.0,230523,,,A
$GPGGA,080412.000,2306.3120,N,11317.0473,E,1,08,1.0,15.0,M,0.0,M,,
$GPGSV,3,1,12,01,45,123,42,02,30,234,38,03,60,345,42,04,15,056,35
$GPRMC,080413.000,A,2306.3120,N,11317.0538,E,21.6,90.0,230523,,,A
$GPGGA,080413.000,2306.3120,N,11317.0538,E,1,08,1.0,15.0,M,0.0,M,,
$GPRMC,080414.000,A,2306.3120,N,11317.0603,E,21.6,90.0,230523,,,A
$GPGGA,080414.000,2306.3120,N,11317.0603,E,1,08,1.1,15.0,M,0.0,M,,
$GPRMC,080415.000,A,2306.3120,N,11317.0668,E,21.6,90.0,230523,,,A
$GPGGA,080415.000,2306.3120,N,11317.0668,E,1,08,1.1,15.0,M,0.0,M,,
$GPGSV,3,1,12,01,45,123,42,02,30,234,38,03,60,345,45,04,15,056,35
$GPRMC,080416.000,A,2306.3120,N,11317.0734,E,21.6,90.0,230523,,,A
$GPGGA,080416.000,2306.3120,N,11317.0734,E,1,08,1.1,15.0,M,0.0,M,,
$GPRMC,080417.000,A,2306.3120,N,11317.0799,E,21.6,90.0,230523,,,A
$GPGGA,080417.000,2306.3120,N,11317.0799,E,1,08,1.2,15.0,M,0.0,M,,
$GPRMC,080418.000,A,2306.3120,N,11317.0864,E,21.6,90.0,230523,,,A
$GPGGA,080418.000,2306.3120,N,11317.0864,E,1,08,1.2,15.0,M,0.0,M,,
$GPGSV,3,1,12,01,45,123,42,02,30,234,38,03,60,345,48,04,15,056,35
$GPRMC,080419.000,A,2306.3120,N,11317.0929,E,21.6,90.0,230523,,,A
$GPGGA,080419.000,2306.3120,N,11317.0929,E,1,08,1.2,15.0,M,0.0,M,,
$GPRMC,080420.000,A,2306.3120,N,11317.0994,E,21.6,90.0,230523,,,A
$GPGGA,080420.000,2306.3120,N,11317.0994,E,1,08,1.2,15.0,M,0.0,M,,
$GPRMC,080421.000,A,2306.3120,N,11317.1059,E,21.6,90.0,230523,,,A
$GPGGA,080421.000,2306.3120,N,11317.1059,E,1,08,1.2,15.0,M,0.0,M,,
$GPGSV,3,1,12,01,45,123,42,02,30,234,38,03,60,345,41,04,15,056,35
$GPRMC,080422.000,A,2306.3120,N,11317.1124,E,21.6,90.0,230523,,,A
$GPGGA,080422.000,2306.3120,N,11317.1124,E,1,08,1.3,15.0,M,0.0,M,,
$GPRMC,080423.000,A,2306.3120,N,11317.1189,E,21.6,90.0,230523,,,A
$GPGGA,080423.000,2306.3120,N,11317.1189,E,1,08,1.3,15.0,M,0.0,M,,
$GPRMC,080424.000,A,2306.3120,N,11317.1254,E,21.6,90.0,230523,,,A
$GPGGA,080424.000,2306.3120,N,11317.1254,E,1,08,1.3,15.0,M,0.0,M,,
$GPGSV,3,1,12,01,45,123,42,02,30,234,38,03,60,345,44,04,15,056,35
$GPRMC,080425.000,A,2306.3120,N,11317.1320,E,21.6,90.0,230523,,,A
$GPGGA,080425.000,2306.3120,N,11317.1320,E,1,08,1.3,15.0,M,0.0,M,,
$GPRMC,080426.000,A,2306.3120,N,11317.1385,E,21.6,90.0,230523,,,A
$GPGGA,080426.000,2306.3120,N,11317.1385,E,1,08,1.3,15.0,M,0.0,M,,
$GPRMC,080427.000,A,2306.3120,N,11317.1450,E,21.6,90.0,230523,,,A
$GPGGA,080427.000,2306.3120,N,11317.1450,E,1,08,1.3,15.0,M,0.0,M,,
$GPGSV,3,1,12,01,45,123,42,02,30,234,38,03,60,345,47,04,15,056,35
$GPRMC,080428.000,A,2306.3120,N,11317.1515,E,21.6,90.0,230523,,,A
$GPGGA,080428.000,2306.3120,N,11317.1515,E,1,08,1.3,15.0,M,0.0,M,,
$GPRMC,080429.000,A,2306.3120,N,11317.1580,E,21.6,90.0,230523,,,A
$GPGGA,080429.000,2306.3120,N,11317.1580,E,1,08,1.3,15.0,M,0.0,M,,
$GPRMC,080430.000,A,2306.3120,N,11317.1645,E,21.6,90.0,230523,,,A
$GPGGA,080430.000,2306.3120,N,11317.1645,E,1,08,1.3,15.0,M,0.0,M,,
$GPGSV,3,1,12,01,45,123,42,02,30,234,38,03,60,345,40,04,15,056,35
$GPRMC,080431.000,A,2306.3120,N,11317.1710,E,21.6,90.0,230523,,,A
$GPGGA,080431.000,2306.3120,N,11317.1710,E,1,08,1.3,15.0,M,0.0,M,,
$GPRMC,080432.000,A,2306.3120,N,11317.1775,E,21.6,90.0,230523,,,A
$GPGGA,080432.000,2306.3120,N,11317.1775,E,1,08,1.3,15.0,M,0.0,M,,
$GPRMC,080433.000,A,2306.3120,N,11317.1840,E,21.6,90.0,230523,,,A
$GPGGA,080433.000,2306.3120,N,11317.1840,E,1,08,1.2,15.0,M,0.0,M,,
$GPGSV,3,1,12,01,45,123,42,02,30,234,38,03,60,345,43,04,15,056,35
$GPRMC,080434.000,A,2306.3120,N,11317.1906,E,21.6,90.0,230523,,,A
$GPGGA,080434.000,2306.3120,N,11317.1906,E,1,08,1.2,15.0,M,0.0,M,,
$GPRMC,080435.000,A,2306.3120,N,11317.1971,E,21.6,90.0,230523,,,A
$GPGGA,080435.000,2306.3120,N,11317.1971,E,1,08,1.2,15.0,M,0.0,M,,
$GPRMC,080436.000,A,2306.3120,N,11317.2036,E,21.6,90.0,230523,,,A
$GPGGA,080436.000,2306.3120,N,11317.2036,E,1,08,1.2,15.0,M,0.0,M,,
$GPGSV,3,1,12,01,45,123,42,02,30,234,38,03,60,345,46,04,15,056,35
$GPRMC,080437.000,A,2306.3120,N,11317.2101,E,21.6,90.0,230523,,,A
$GPGGA,080437.000,2306.3120,N,11317.2101,E,1,08,1.2,15.0,M,0.0,M,,
$GPRMC,080438.000,A,2306.3120,N,11317.2166,E,21.6,90.0,230523,,,A
$GPGGA,080438.000,2306.3120,N,11317.2166,E,1,08,1.1,15.0,M,0.0,M,,
$GPRMC,080439.000,A,2306.3120,N,11317.2231,E,21.6,90.0,230523,,,A
$GPGGA,080439.000,2306.3120,N,11317.2231,E,1,08,1.1,15.0,M,0.0,M,,
$GPGSV,3,1,12,01,45,123,42,02,30,234,38,03,60,345,49,04,15,056,35
$GPRMC,080440.000,A,2306.3120,N,11317.2296,E,21.6,90.0,230523,,,A
$GPGGA,080440.000,2306.3120,N,11317.2296,E,1,08,1.1,15.0,M,0.0,M,,
$GPRMC,080441.000,A,2306.3120,N,11317.2361,E,21.6,90.0,230523,,,A
$GPGGA,080441.000,2306.3120,N,11317.2361,E,1,08,1.1,15.0,M,0.0,M,,
$GPRMC,080442.000,A,2306.3120,N,11317.2426,E,21.6,90.0,230523,,,A
$GPGGA,080442.000,2306.3120,N,11317.2426,E,1,08,1.0,15.0,M,0.0,M,,
$GPGSV,3,1,12,01,45,123,42,02,30,234,38,03,60,345,42,04,15,056,35
$GPRMC,080443.000,A,2306.3120,N,11317.2492,E,21.6,90.0,230523,,,A
$GPGGA,080443.000,2306.3120,N,11317.2492,E,1,08,1.0,15.0,M,0.0,M,,
$GPRMC,080444.000,A,2306.3120,N,11317.2557,E,21.6,90.0,230523,,,A
$GPGGA,080444.000,2306.3120,N,11317.2557,E,1,08,1.0,15.0,M,0.0,M,,
$GPRMC,080445.000,A,2306.3120,N,11317.2622,E,21.6,90.0,230523,,,A
$GPGGA,080445.000,2306.3120,N,11317.2622,E,1,08,0.9,15.0,M,0.0,M,,
$GPGSV,3,1,12,01,45,123,42,02,30,234,38,03,60,345,45,04,15,056,35
$GPRMC,080446.000,A,2306.3120,N,11317.2687,E,21.6,90.0,230523,,,A
$GPGGA,080446.000,2306.3120,N,11317.2687,E,1,08,0.9,15.0,M,0.0,M,,
$GPRMC,080447.000,A,2306.3120,N,11317.2752,E,21.6,90.0,230523,,,A
$GPGGA,080447.000,2306.3120,N,11317.2752,E,1,08,0.9,15.0,M,0.0,M,,
$GPRMC,080448.000,A,2306.3120,N,11317.2817,E,21.6,90.0,230523,,,A
$GPGGA,080448.000,2306.3120,N,11317.2817,E,1,08,0.8,15.0,M,0.0,M,,
$GPGSV,3,1,12,01,45,123,42,02,30,234,38,03,60,345,48,04,15,056,35
$GPRMC,080449.000,A,2306.3120,N,11317.2882,E,21.6,90.0,230523,,,A
$GPGGA,080449.000,2306.3120,N,11317.2882,E,1,08,0.8,15.0,M,0.0,M,,
$GPRMC,080450.000,A,2306.3120,N,11317.2947,E,21.6,90.0,230523,,,A
$GPGGA,080450.000,2306.3120,N,11317.2947,E,1,08,0.8,15.0,M,0.0,M,,
$GPRMC,080451.000,A,2306.3120,N,11317.3012,E,21.6,90.0,230523,,,A
$GPGGA,080451.000,2306.3120,N,11317.3012,E,1,08,0.8,15.0,M,0.0,M,,
$GPGSV,3,1,12,01,45,123,42,02,30,234,38,03,60,345,41,04,15,056,35
$GPRMC,080452.000,A,2306.3120,N,11317.3078,E,21.6,90.0,230523,,,A
$GPGGA,080452.000,2306.3120,N,11317.3078,E,1,08,0.8,15.0,M,0.0,M,,
$GPRMC,080453.000,A,2306.3120,N,11317.3143,E,21.6,90.0,230523,,,A
$GPGGA,080453.000,2306.3120,N,11317.3143,E,1,08,0.7,15.0,M,0.0,M,,
$GPRMC,080454.000,A,2306.3120,N,11317.3208,E,21.6,90.0,230523,,,A
$GPGGA,080454.000,2306.3120,N,11317.3208,E,1,08,0.7,15.0,M,0.0,M,,
$GPGSV,3,1,12,01,45,123,42,02,30,234,38,03,60,345,44,04,15,056,35
$GPRMC,080455.000,A,2306.3120,N,11317.3273,E,21.6,90.0,230523,,,A
$GPGGA,080455.000,2306.3120,N,11317.3273,E,1,08,0.7,15.0,M,0.0,M,,
$GPRMC,080456.000,A,2306.3120,N,11317.3338,E,21.6,90.0,230523,,,A
$GPGGA,080456.000,2306.3120,N,11317.3338,E,1,08,0.7,15.0,M,0.0,M,,
$GPRMC,080457.000,A,2306.3120,N,11317.3403,E,21.6,90.0,230523,,,A
$GPGGA,080457.000,2306.3120,N,11317.3403,E,1,08,0.7,15.0,M,0.0,M,,
$GPGSV,3,1,12,01,45,123,42,02,30,234,38,03,60,345,47,04,15,056,35
$GPRMC,080458.000,A,2306.3120,N,11317.3468,E,21.6,90.0,230523,,,A
$GPGGA,080458.000,2306.3120,N,11317.3468,E,1,08,0.7,15.0,M,0.0,M,,
$GPRMC,080459.000,A,2306.3120,N,11317.3533,E,21.6,90.0,230523,,,A
$GPGGA,080459.000,2306.3120,N,11317.3533,E,1,08,0.7,15.0,M,0.0,M,,
$GPRMC,080500.000,A,2306.3120,N,11317.3598,E,21.6,90.0,230523,,,A
$GPGGA,080500.000,2306.3120,N,11317.3598,E,1,08,0.7,15.0,M,0.0,M,,
$GPGSV,3,1,12,01,45,123,42,02,30,234,38,03,60,345,40,04,15,056,35
$GPRMC,080501.000,A,2306.3120,N,11317.3664,E,21.6,90.0,230523,,,A
$GPGGA,080501.000,2306.3120,N,11317.3664,E,1,08,0.7,15.0,M,0.0,M,,
$GPRMC,080502.000,A,2306.3120,N,11317.3729,E,21.6,90.0,230523,,,A
$GPGGA,080502.000,2306.3120,N,11317.3729,E,1,08,0.7,15.0,M,0.0,M,,
$GPRMC,080503.000,A,2306.3120,N,11317.3794,E,21.6,90.0,230523,,,A
$GPGGA,080503.000,2306.3120,N,11317.3794,E,1,08,0.7,15.0,M,0.0,M,,
$GPGSV,3,1,12,01,45,123,42,02,30,234,38,03,60,345,43,04,15,056,35
$GPRMC,080504.000,A,2306.3120,N,11317.3859,E,21.6,90.0,230523,,,A
$GPGGA,080504.000,2306.3120,N,11317.3859,E,1,08,0.7,15.0,M,0.0,M,,
$GPRMC,080505.000,A,2306.3120,N,11317.3924,E,21.6,90.0,230523,,,A
$GPGGA,080505.000,2306.3120,N,11317.3924,E,1,08,0.8,15.0,M,0.0,M,,
$GPRMC,080506.000,A,2306.3120,N,11317.3989,E,21.6,90.0,230523,,,A
$GPGGA,080506.000,2306.3120,N,11317.3989,E,1,08,0.8,15.0,M,0.0,M,,
$GPGSV,3,1,12,01,45,123,42,02,30,234,38,03,60,345,46,04,15,056,35
$GPRMC,080507.000,A,2306.3120,N,11317.4054,E,21.6,90.0,230523,,,A
$GPGGA,080507.000,2306.3120,N,11317.4054,E,1,08,0.8,15.0,M,0.0,M,,
$GPRMC,080508.000,A,2306.3120,N,11317.4119,E,21.6,90.0,230523,,,A
$GPGGA,080508.000,2306.3120,N,11317.4119,E,1,08,0.8,15.0,M,0.0,M,,
$GPRMC,080509.000,A,2306.3120,N,11317.4184,E,21.6,90.0,230523,,,A
$GPGGA,080509.000,2306.3120,N,11317.4184,E,1,08,0.9,15.0,M,0.0,M,,
$GPGSV,3,1,12,01,45,123,42,02,30,234,38,03,60,345,49,04,15,056,35
$GPRMC,080510.000,A,2306.3120,N,11317.4250,E,21.6,90.0,230523,,,A
$GPGGA,080510.000,2306.3120,N,11317.4250,E,1,08,0.9,15.0,M,0.0,M,,
$GPRMC,080511.000,A,2306.3120,N,11317.4315,E,21.6,90.0,230523,,,A
$GPGGA,080511.000,2306.3120,N,11317.4315,E,1,08,0.9,15.0,M,0.0,M,,
$GPRMC,080512.000,A,2306.3120,N,11317.4380,E,21.6,90.0,230523,,,A
$GPGGA,080512.000,2306.3120,N,11317.4380,E,1,08,0.9,15.0,M,0.0,M,,
$GPGSV,3,1,12,01,45,123,42,02,30,234,38,03,60,345,42,04,15,056,35
$GPRMC,080513.000,A,2306.3120,N,11317.4445,E,21.6,90.0,230523,,,A
$GPGGA,080513.000,2306.3120,N,11317.4445,E,1,08,1.0,15.0,M,0.0,M,,
$GPRMC,080514.000,A,2306.3120,N,11317.4510,E,21.6,90.0,230523,,,A
$GPGGA,080514.000,2306.3120,N,11317.4510,E,1,08,1.0,15.0,M,0.0,M,,
$GPRMC,080515.000,A,2306.3120,N,11317.4575,E,21.6,90.0,230523,,,A
$GPGGA,080515.000,2306.3120,N,11317.4575,E,1,08,1.0,15.0,M,0.0,M,,
$GPGSV,3,1,12,01,45,123,42,02,30,234,38,03,60,345,45,04,15,056,35
$GPRMC,080516.000,A,2306.3120,N,11317.4640,E,21.6,90.0,230523,,,A
$GPGGA,080516.000,2306.3120,N,11317.4640,E,1,08,1.1,15.0,M,0.0,M,,
$GPRMC,080517.000,A,2306.3120,N,11317.4705,E,21.6,90.0,230523,,,A
$GPGGA,080517.000,2306.3120,N,11317.4705,E,1,08,1.1,15.0,M,0.0,M,,
$GPRMC,080518.000,A,2306.3120,N,11317.4770,E,21.6,90.0,230523,,,A
$GPGGA,080518.000,2306.3120,N,11317.4770,E,1,08,1.1,15.0,M,0.0,M,,
$GPGSV,3,1,12,01,45,123,42,02,30,234,38,03,60,345,48,04,15,056,35
$GPRMC,080519.000,A,2306.3120,N,11317.4836,E,21.6,90.0,230523,,,A
$GPGGA,080519.000,2306.3120,N,11317.4836,E,1,08,1.1,15.0,M,0.0,M,,
$GPRMC,080520.000,A,2306.3120,N,11317.4901,E,21.6,90.0,230523,,,A
$GPGGA,080520.000,2306.3120,N,11317.4901,E,1,08,1.2,15.0,M,0.0,M,,
$GPRMC,080521.000,A,2306.3120,N,11317.4966,E,21.6,90.0,230523,,,A
$GPGGA,080521.000,2306.3120,N,11317.4966,E,1,08,1.2,15.0,M,0.0,M,,
$GPGSV,3,1,12,01,45,123,42,02,30,234,38,03,60,345,41,04,15,056,35
$GPRMC,080522.000,A,2306.3120,N,11317.5031,E,21.6,90.0,230523,,,A
$GPGGA,080522.000,2306.3120,N,11317.5031,E,1,08,1.2,15.0,M,0.0,M,,
$GPRMC,080523.000,A,2306.3120,N,11317.5096,E,21.6,90.0,230523,,,A
$GPGGA,080523.000,2306.3120,N,11317.5096,E,1,08,1.2,15.0,M,0.0,M,,
$GPRMC,080524.000,A,2306.3120,N,11317.5161,E,21.6,90.0,230523,,,A
$GPGGA,080524.000,2306.3120,N,11317.5161,E,1,08,1.2,15.0,M,0.0,M,,
$GPGSV,3,1,12,01,45,123,42,02,30,234,38,03,60,345,44,04,15,056,35
$GPRMC,080525.000,A,2306.3120,N,11317.5226,E,21.6,90.0,230523,,,A
$GPGGA,080525.000,2306.3120,N,11317.5226,E,1,08,1.3,15.0,M,0.0,M,,
$GPRMC,080526.000,A,2306.3120,N,11317.5291,E,21.6,90.0,230523,,,A
$GPGGA,080526.000,2306.3120,N,11317.5291,E,1,08,1.3,15.0,M,0.0,M,,
$GPRMC,080527.000,A,2306.3120,N,11317.5356,E,21.6,90.0,230523,,,A
$GPGGA,080527.000,2306.3120,N,11317.5356,E,1,08,1.3,15.0,M,0.0,M,,
$GPGSV,3,1,12,01,45,123,42,02,30,234,38,03,60,345,47,04,15,056,35
$GPRMC,080528.000,A,2306.3120,N,11317.5422,E,21.6,90.0,230523,,,A
$GPGGA,080528.000,2306.3120,N,11317.5422,E,1,08,1.3,15.0,M,0.0,M,,
$GPRMC,080529.000,A,2306.3120,N,11317.5487,E,21.6,90.0,230523,,,A
$GPGGA,080529.000,2306.3120,N,11317.5487,E,1,08,1.3,15.0,M,0.0,M,,
$GPRMC,080530.000,A,2306.3120,N,11317.5552,E,21.6,90.0,230523,,,A
$GPGGA,080530.000,2306.3120,N,11317.5552,E,1,08,1.3,15.0,M,0.0,M,,
$GPGSV,3,1,12,01,45,123,42,02,30,234,38,03,60,345,40,04,15,056,35
$GPRMC,080531.000,A,2306.3120,N,11317.5617,E,21.6,90.0,230523,,,A
$GPGGA,080531.000,2306.3120,N,11317.5617,E,1,08,1.3,15.0,M,0.0,M,,
$GPRMC,080532.000,A,2306.3120,N,11317.5682,E,21.6,90.0,230523,,,A
$GPGGA,080532.000,2306.3120,N,11317.5682,E,1,08,1.3,15.0,M,0.0,M,,
$GPRMC,080533.000,A,2306.3120,N,11317.5747,E,21.6,90.0,230523,,,A
$GPGGA,080533.000,2306.3120,N,11317.5747,E,1,08,1.3,15.0,M,0.0,M,,
$GPGSV,3,1,12,01,45,123,42,02,30,234,38,03,60,345,43,04,15,056,35
$GPRMC,080534.000,A,2306.3120,N,11317.5812,E,21.6,90.0,230523,,,A
$GPGGA,080534.000,2306.3120,N,11317.5812,E,1,08,1.3,15.0,M,0.0,M,,
$GPRMC,080535.000,A,2306.3120,N,11317.5877,E,21.6,90.0,230523,,,A
$GPGGA,080535.000,2306.3120,N,11317.5877,E,1,08,1.3,15.0,M,0.0,M,,
$GPRMC,080536.000,A,2306.3120,N,11317.5942,E,21.6,90.0,230523,,,A
$GPGGA,080536.000,2306.3120,N,11317.5942,E,1,08,1.2,15.0,M,0.0,M,,
$GPGSV,3,1,12,01,45,123,42,02,30,234,38,03,60,345,46,04,15,056,35
$GPRMC,080537.000,A,2306.3120,N,11317.6008,E,21.6,90.0,230523,,,A
$GPGGA,080537.000,2306.3120,N,11317.6008,E,1,08,1.2,15.0,M,0.0,M,,
$GPRMC,080538.000,A,2306.3120,N,11317.6073,E,21.6,90.0,230523,,,A
$GPGGA,080538.000,2306.3120,N,11317.6073,E,1,08,1.2,15.0,M,0.0,M,,
$GPRMC,080539.000,A,2306.3120,N,11317.6138,E,21.6,90.0,230523,,,A
$GPGGA,080539.000,2306.3120,N,11317.6138,E,1,08,1.2,15.0,M,0.0,M,,
$GPGSV,3,1,12,01,45,123,42,02,30,234,38,03,60,345,49,04,15,056,35
$GPRMC,080540.000,A,2306.3120,N,11317.6203,E,21.6,90.0,230523,,,A
$GPGGA,080540.000,2306.3120,N,11317.6203,E,1,08,1.2,15.0,M,0.0,M,,
$GPRMC,080541.000,A,2306.3120,N,11317.6268,E,21.6,90.0,230523,,,A
$GPGGA,080541.000,2306.3120,N,11317.6268,E,1,08,1.1,15.0,M,0.0,M,,
$GPRMC,080542.000,A,2306.3120,N,11317.6333,E,21.6,90.0,230523,,,A
$GPGGA,080542.000,2306.3120,N,11317.6333,E,1,08,1.1,15.0,M,0.0,M,,
$GPGSV,3,1,12,01,45,123,42,02,30,234,38,03,60,345,42,04,15,056,35
$GPRMC,080543.000,A,2306.3120,N,11317.6398,E,21.6,90.0,230523,,,A
$GPGGA,080543.000,2306.3120,N,11317.6398,E,1,08,1.1,15.0,M,0.0,M,,
$GPRMC,080544.000,A,2306.3120,N,11317.6463,E,21.6,90.0,230523,,,A
$GPGGA,080544.000,2306.3120,N,11317.6463,E,1,08,1.0,15.0,M,0.0,M,,
$GPRMC,080545.000,A,2306.3120,N,11317.6528,E,21.6,90.0,230523,,,A
$GPGGA,080545.000,2306.3120,N,11317.6528,E,1,08,1.0,15.0,M,0.0,M,,
$GPGSV,3,1,12,01,45,123,42,02,30,234,38,03,60,345,45,04,15,056,35
$GPRMC,080546.000,A,2306.3120,N,11317.6593,E,21.6,90.0,230523,,,A
$GPGGA,080546.000,2306.3120,N,11317.6593,E,1,08,1.0,15.0,M,0.0,M,,
$GPRMC,080547.000,A,2306.3120,N,11317.6659,E,21.6,90.0,230523,,,A
$GPGGA,080547.000,2306.3120,N,11317.6659,E,1,08,1.0,15.0,M,0.0,M,,
$GPRMC,080548.000,A,2306.3120,N,11317.6724,E,21.6,90.0,230523,,,A
$GPGGA,080548.000,2306.3120,N,11317.6724,E,1,08,0.9,15.0,M,0.0,M,,
$GPGSV,3,1,12,01,45,123,42,02,30,234,38,03,60,345,48,04,15,056,35
$GPRMC,080549.000,A,2306.3120,N,11317.6789,E,21.6,90.0,230523,,,A
$GPGGA,080549.000,2306.3120,N,11317.6789,E,1,08,0.9,15.0,M,0.0,M,,
$GPRMC,080550.000,A,2306.3120,N,11317.6854,E,21.6,90.0,230523,,,A
$GPGGA,080550.000,2306.3120,N,11317.6854,E,1,08,0.9,15.0,M,0.0,M,,
$GPRMC,080551.000,A,2306.3120,N,11317.6919,E,21.6,90.0,230523,,,A
$GPGGA,080551.000,2306.3120,N,11317.6919,E,1,08,0.8,15.0,M,0.0,M,,
$GPGSV,3,1,12,01,45,123,42,02,30,234,38,03,60,345,41,04,15,056,35
$GPRMC,080552.000,A,2306.3120,N,11317.6984,E,21.6,90.0,230523,,,A
$GPGGA,080552.000,2306.3120,N,11317.6984,E,1,08,0.8,15.0,M,0.0,M,,
$GPRMC,080553.000,A,2306.3120,N,11317.7049,E,21.6,90.0,230523,,,A
$GPGGA,080553.000,2306.3120,N,11317.7049,E,1,08,0.8,15.0,M,0.0,M,,
$GPRMC,080554.000,A,2306.3120,N,11317.7114,E,21.6,90.0,230523,,,A
$GPGGA,080554.000,2306.3120,N,11317.7114,E,1,08,0.8,15.0,M,0.0,M,,
$GPGSV,3,1,12,01,45,123,42,02,30,234,38,03,60,345,44,04,15,056,35
$GPRMC,080555.000,A,2306.3120,N,11317.7179,E,21.6,90.0,230523,,,A
$GPGGA,080555.000,2306.3120,N,11317.7179,E,1,08,0.8,15.0,M,0.0,M,,
$GPRMC,080556.000,A,2306.3120,N,11317.7245,E,21.6,90.0,230523,,,A
$GPGGA,080556.000,2306.3120,N,11317.7245,E,1,08,0.7,15.0,M,0.0,M,,
$GPRMC,080557.000,A,2306.3120,N,11317.7310,E,21.6,90.0,230523,,,A
$GPGGA,080557.000,2306.3120,N,11317.7310,E,1,08,0.7,15.0,M,0.0,M,,
$GPGSV,3,1,12,01,45,123,42,02,30,234,38,03,60,345,47,04,15,056,35
$GPRMC,080558.000,A,2306.3120,N,11317.7375,E,21.6,90.0,230523,,,A
$GPGGA,080558.000,2306.3120,N,11317.7375,E,1,08,0.7,15.0,M,0.0,M,,
$GPRMC,080559.000,A,2306.3120,N,11317.7440,E,21.6,90.0,230523,,,A
$GPGGA,080559.000,2306.3120,N,11317.7440,E,1,08,0.7,15.0,M,0.0,M,,
